{
  "cities": {
    "Europe": [
      {
        "name": "Barcelona",
        "filename": "barcelona",
        "continent": "Europe",
        "coordinates": { "lat": 41.3851, "lng": 2.1734 }
      },
      {
        "name": "London",
        "filename": "london",
        "continent": "Europe",
        "coordinates": { "lat": 51.5074, "lng": 0.1278 }
      },
      {
        "name": "Paris",
        "filename": "paris",
        "continent": "Europe",
        "coordinates": { "lat": 48.8566, "lng": 2.3522 }
      },
      {
        "name": "Rome",
        "filename": "rome",
        "continent": "Europe",
        "coordinates": { "lat": 41.9028, "lng": 12.4964 }
      },
      {
        "name": "Istanbul",
        "filename": "istanbul",
        "continent": "Europe",
        "coordinates": { "lat": 41.0082, "lng": 28.9784 }
      }
    ],
    "Asia": [
      {
        "name": "Tokyo",
        "filename": "tokyo",
        "continent": "Asia",
        "coordinates": { "lat": 35.6762, "lng": 139.6503 }
      },
      {
        "name": "Dubai",
        "filename": "dubai",
        "continent": "Asia",
        "coordinates": { "lat": 25.2048, "lng": 55.2708 }
      },
      {
        "name": "Bangkok",
        "filename": "bangkok",
        "continent": "Asia",
        "coordinates": { "lat": 13.7563, "lng": 100.5018 }
      },
      {
        "name": "Hong Kong",
        "filename": "hong-kong",
        "continent": "Asia",
        "coordinates": { "lat": 22.3193, "lng": 114.1694 }
      },
      {
        "name": "Kuala Lumpur",
        "filename": "kuala-lumpur",
        "continent": "Asia",
        "coordinates": { "lat": 3.1390, "lng": 101.6869 }
      }
    ],
    "Americas": [
      {
        "name": "New York",
        "filename": "new-york",
        "continent": "Americas",
        "coordinates": { "lat": 40.7128, "lng": -74.0060 }
      },
      {
        "name": "San Francisco",
        "filename": "san-francisco",
        "continent": "Americas",
        "coordinates": { "lat": 37.7749, "lng": -122.4194 }
      },
      {
        "name": "Buenos Aires",
        "filename": "buenos-aires",
        "continent": "Americas",
        "coordinates": { "lat": -34.6037, "lng": -58.3816 }
      }
    ],
    "Africa": [
      {
        "name": "Accra",
        "filename": "accra",
        "continent": "Africa",
        "coordinates": { "lat": 5.6037, "lng": -0.1870 }
      },
      {
        "name": "Essaouira",
        "filename": "essaouira",
        "continent": "Africa",
        "coordinates": { "lat": 31.5085, "lng": -9.7595 }
      }
    ],
    "Middle East": [
      {
        "name": "Jerusalem",
        "filename": "jerusalem",
        "continent": "Middle East",
        "coordinates": { "lat": 31.7683, "lng": 35.2137 }
      },
      {
        "name": "Amman",
        "filename": "amman",
        "continent": "Middle East",
        "coordinates": { "lat": 31.9454, "lng": 35.9284 }
      },
      {
        "name": "Mecca",
        "filename": "mecca",
        "continent": "Middle East",
        "coordinates": { "lat": 21.4225, "lng": 39.8262 }
      }
    ]
  }
} 